$GPGSV,4,1,13,02,65,302,,04,03,052,11,05,34,191,31,06,54,031,27*77
$GPGSV,4,2,13,09,11,085,18,12,49,302,29,17,32,095,29,19,48,081,22*79
$GPGSV,4,3,13,24,07,245,29,25,18,318,27,28,05,153,,46,30,238,*74
$GPGSV,4,4,13,51,44,213,40*4B
$GPGLL,3448.35890,N,08641.94061,W,162816.00,A,D*79
$GPRMC,162817.00,A,3448.35900,N,08641.94046,W,0.452,,050820,,,D*60
$GPVTG,,T,,M,0.452,N,0.837,K,D*29
$GPGGA,162817.00,3448.35900,N,08641.94046,W,2,09,0.98,253.7,M,-30.9,M,,0000*6A
$GPGSA,A,3,51,12,06,19,25,05,17,09,24,,,,2.11,0.98,1.86*0C
$GPGSV,4,1,13,02,65,302,,04,03,052,10,05,34,191,31,06,54,031,28*79
$GPGSV,4,2,13,09,11,085,18,12,49,302,29,17,32,095,29,19,48,081,24*7F
$GPGSV,4,3,13,24,07,245,29,25,18,318,27,28,05,153,,46,30,238,*74
$GPGSV,4,4,13,51,44,213,40*4B
$GPGLL,3448.35900,N,08641.94046,W,162817.00,A,D*75
$GPRMC,162818.00,A,3448.35902,N,08641.94026,W,0.432,,050820,,,D*6D
$GPVTG,,T,,M,0.432,N,0.800,K,D*2B
$GPGGA,162818.00,3448.35902,N,08641.94026,W,2,09,0.98,254.3,M,-30.9,M,,0000*62
$GPGSA,A,3,51,12,06,19,25,05,17,09,24,,,,2.11,0.98,1.86*0C
$GPGSV,4,1,13,02,65,302,,04,03,052,,05,34,191,31,06,54,031,28*78
$GPGSV,4,2,13,09,11,085,17,12,49,302,30,17,32,095,28,19,48,081,25*78
$GPGSV,4,3,13,24,07,245,29,25,18,318,26,28,05,153,,46,30,238,*75
$GPGSV,4,4,13,51,44,213,40*4B
$GPGLL,3448.35902,N,08641.94026,W,162818.00,A,D*7E
$GPRMC,162819.00,A,3448.35907,N,08641.94008,W,0.264,,050820,,,D*60
$GPVTG,,T,,M,0.264,N,0.489,K,D*23
$GPGGA,162819.00,3448.35907,N,08641.94008,W,2,09,0.98,254.6,M,-30.9,M,,0000*6F
$GPGSA,A,3,51,12,06,19,25,05,17,09,24,,,,2.11,0.98,1.86*0C
$GPGSV,4,1,13,02,65,302,,04,03,052,,05,34,191,31,06,54,031,28*78
$GPGSV,4,2,13,09,11,085,16,12,49,302,30,17,32,095,28,19,48,081,25*79
$GPGSV,4,3,13,24,07,245,28,25,18,318,25,28,05,153,,46,30,238,*77
$GPGSV,4,4,13,51,44,213,40*4B
$GPGLL,3448.35907,N,08641.94008,W,162819.00,A,D*76
$GPRMC,162820.00,A,3448.35919,N,08641.93988,W,0.087,,050820,,,D*6C
$GPVTG,,T,,M,0.087,N,0.160,K,D*2E
$GPGGA,162820.00,3448.35919,N,08641.93988,W,2,10,0.98,254.8,M,-30.9,M,,0000*6A
$GPGSA,A,3,51,12,06,19,25,05,02,17,09,24,,,2.11,0.98,1.86*0E
$GPGSV,4,1,13,02,65,302,17,04,03,052,,05,34,191,31,06,54,031,29*7F
$GPGSV,4,2,13,09,11,085,17,12,49,302,29,17,32,095,27,19,48,081,25*7F
$GPGSV,4,3,13,24,07,245,28,25,18,318,23,28,05,153,,46,30,238,*71
$GPGSV,4,4,13,51,44,213,40*4B
$GPGLL,3448.35919,N,08641.93988,W,162820.00,A,D*75
$GPRMC,162821.00,A,3448.35922,N,08641.93966,W,0.341,,050820,,,D*6C
$GPVTG,,T,,M,0.341,N,0.631,K,D*24
$GPGGA,162821.00,3448.35922,N,08641.93966,W,2,08,0.98,255.2,M,-30.9,M,,0000*61
$GPGSA,A,3,51,12,06,19,25,05,17,24,,,,,2.11,0.98,1.86*05
$GPGSV,4,1,13,02,65,302,16,04,03,052,,05,34,191,31,06,54,031,29*7E
$GPGSV,4,2,13,09,11,085,,12,49,302,29,17,32,095,27,19,48,081,26*7A
$GPGSV,4,3,13,24,07,245,28,25,18,318,21,28,05,153,,46,30,238,*73
$GPGSV,4,4,13,51,44,213,40*4B
$GPGLL,3448.35922,N,08641.93966,W,162821.00,A,D*7C
$GPRMC,162822.00,A,3448.35938,N,08641.93943,W,0.489,,050820,,,D*60
$GPVTG,,T,,M,0.489,N,0.906,K,D*2C
$GPGGA,162822.00,3448.35938,N,08641.93943,W,2,09,0.98,255.0,M,-30.9,M,,0000*6D
$GPGSA,A,3,51,12,06,19,25,05,02,17,24,,,,2.11,0.98,1.86*07
$GPGSV,4,1,13,02,65,302,15,04,03,052,,05,34,191,31,06,54,031,30*75
$GPGSV,4,2,13,09,11,085,,12,49,302,30,17,32,095,27,19,48,081,26*72
$GPGSV,4,3,13,24,07,245,28,25,18,318,19,28,05,153,,46,30,238,*78
$GPGSV,4,4,13,51,44,213,40*4B
$GPGLL,3448.35938,N,08641.93943,W,162822.00,A,D*73
$GPRMC,162823.00,A,3448.35943,N,08641.93918,W,0.228,,050820,,,D*6E
$GPVTG,,T,,M,0.228,N,0.422,K,D*2A
$GPGGA,162823.00,3448.35943,N,08641.93918,W,2,09,0.98,255.2,M,-30.9,M,,0000*6C
$GPGSA,A,3,51,12,06,19,25,05,02,17,24,,,,2.11,0.98,1.86*07
$GPGSV,4,1,13,02,65,302,14,04,03,052,,05,34,191,31,06,54,031,30*74
$GPGSV,4,2,13,09,11,085,,12,49,302,30,17,32,095,27,19,48,081,26*72
$GPGSV,4,3,13,24,07,245,28,25,18,318,17,28,05,153,,46,30,238,*76
$GPGSV,4,4,13,51,44,213,40*4B
$GPGLL,3448.35943,N,08641.93918,W,162823.00,A,D*70
$GPRMC,162824.00,A,3448.35944,N,08641.93892,W,0.242,,050820,,,D*61
$GPVTG,,T,,M,0.242,N,0.449,K,D*2B
$GPGGA,162824.00,3448.35944,N,08641.93892,W,2,09,0.98,255.4,M,-30.9,M,,0000*69
$GPGSA,A,3,51,12,06,19,25,05,17,09,24,,,,2.11,0.98,1.86*0C
$GPGSV,4,1,13,02,65,302,13,04,03,052,,05,34,191,31,06,54,031,30*73
$GPGSV,4,2,13,09,11,085,19,12,49,302,29,17,32,095,26,19,48,081,26*73
$GPGSV,4,3,13,24,07,245,27,25,18,318,16,28,05,153,,46,30,238,*78
$GPGSV,4,4,13,51,44,213,40*4B
$GPGLL,3448.35944,N,08641.93892,W,162824.00,A,D*73
$GPRMC,162825.00,A,3448.35934,N,08641.93865,W,0.545,,050820,,,D*6F
$GPVTG,,T,,M,0.545,N,1.009,K,D*2A
$GPGGA,162825.00,3448.35934,N,08641.93865,W,2,10,0.95,255.3,M,-30.9,M,,0000*65
$GPGSA,A,3,51,12,06,19,25,05,02,17,09,24,,,1.84,0.95,1.57*00
$GPGSV,4,1,13,02,65,302,16,04,03,052,,05,34,191,30,06,54,031,30*77
$GPGSV,4,2,13,09,11,085,17,12,49,302,29,17,31,096,26,19,48,081,27*7C
$GPGSV,4,3,13,24,07,245,26,25,18,318,14,28,05,153,,46,30,238,*7B
$GPGSV,4,4,13,51,44,213,40*4B
$GPGLL,3448.35934,N,08641.93865,W,162825.00,A,D*7D
$GPRMC,162826.00,A,3448.35935,N,08641.93844,W,0.015,,050820,,,D*6E
$GPVTG,,T,,M,0.015,N,0.027,K,D*27
$GPGGA,162826.00,3448.35935,N,08641.93844,W,2,09,0.98,255.1,M,-30.9,M,,0000*63
$GPGSA,A,3,51,12,06,19,25,05,02,17,24,,,,2.11,0.98,1.86*07
$GPGSV,4,1,13,02,65,302,18,04,03,052,,05,34,191,30,06,54,031,31*78
$GPGSV,4,2,13,09,11,085,,12,49,302,29,17,31,096,26,19,48,081,27*7A
$GPGSV,4,3,13,24,07,245,26,25,18,318,15,28,05,153,,46,30,238,*7A
$GPGSV,4,4,13,51,44,213,40*4B
$GPGLL,3448.35935,N,08641.93844,W,162826.00,A,D*7C
$GPRMC,162827.00,A,3448.35920,N,08641.93784,W,1.590,,050820,,,D*61
$GPVTG,,T,,M,1.590,N,2.945,K,D*21
$GPGGA,162827.00,3448.35920,N,08641.93784,W,2,09,0.98,253.7,M,-30.9,M,,0000*65
$GPGSA,A,3,51,12,06,19,25,05,02,17,24,,,,2.11,0.98,1.86*07
$GPGSV,4,1,13,02,65,302,20,04,03,052,,05,34,191,29,06,54,031,31*7B
$GPGSV,4,2,13,09,11,085,,12,49,302,28,17,31,096,25,19,47,081,28*78
$GPGSV,4,3,13,24,07,245,26,25,18,318,16,28,05,153,,46,30,238,*79
$GPGSV,4,4,13,51,44,213,40*4B
$GPGLL,3448.35920,N,08641.93784,W,162827.00,A,D*7A
$GPRMC,162828.00,A,3448.35898,N,08641.93760,W,0.715,,050820,,,D*68
$GPVTG,,T,,M,0.715,N,1.324,K,D*21
$GPGGA,162828.00,3448.35898,N,08641.93760,W,2,09,0.98,253.5,M,-30.9,M,,0000*60
$GPGSA,A,3,51,12,06,19,25,05,02,17,24,,,,2.11,0.98,1.86*07
$GPGSV,4,1,13,02,65,302,20,04,03,052,,05,34,191,29,06,54,031,31*7B
$GPGSV,4,2,13,09,11,085,,12,49,302,29,17,31,096,25,19,47,081,28*79
$GPGSV,4,3,13,24,07,245,26,25,18,318,18,28,05,153,,46,30,238,*77
$GPGSV,4,4,13,51,44,213,40*4B
$GPGLL,3448.35898,N,08641.93760,W,162828.00,A,D*7D
$GPRMC,162829.00,A,3448.35892,N,08641.93755,W,0.185,,050820,,,D*6A
$GPVTG,,T,,M,0.185,N,0.343,K,D*2E
$GPTXT,01,01,02,u-blox ag - www.u-blox.com*50
$GPTXT,01,01,02,HW  UBX-G60xx  00040007 FF7FFFFFp*53
$GPTXT,01,01,02,ROM CORE 7.03 (45969) Mar 17 2011 16:18:34*59
$GPTXT,01,01,02,ANTSUPERV=AC SD PDoS SR*20
